[{"node_id":"HUB_VITHANH","name_vi":"Hub Vị Thanh","node_type":"farm_hub","location_label":"Vị Thanh","lat":9.784,"lon":105.4701,"on_river":true,"active":true,"source_type":"assumption"},{"node_id":"HUB_LONGXUYEN","name_vi":"Hub Long Xuyên","node_type":"farm_hub","location_label":"Long Xuyên","lat":10.3864,"lon":105.4352,"on_river":true,"active":true,"source_type":"assumption"},{"node_id":"HUB_SOCTRANG","name_vi":"Hub Sóc Trăng","node_type":"farm_hub","location_label":"Sóc Trăng","lat":9.6025,"lon":105.9739,"on_river":true,"active":true,"source_type":"assumption"},{"node_id":"HUB_VINHLONG","name_vi":"Hub Vĩnh Long","node_type":"farm_hub","location_label":"Vĩnh Long","lat":10.2537,"lon":105.9722,"on_river":true,"active":true,"source_type":"assumption"},{"node_id":"CT_HUB","name_vi":"Trung tâm trung chuyển Cần Thơ","node_type":"transshipment","location_label":"Cần Thơ","lat":10.0452,"lon":105.7469,"on_river":true,"active":true,"source_type":"assumption"},{"node_id":"HCM_MARKET","name_vi":"Thị trường TP.HCM","node_type":"market","location_label":"TP.HCM","lat":10.7769,"lon":106.7009,"on_river":false,"active":true,"source_type":"assumption"}]
